transforms: 
  - 
    header: 
      seq: 0
      stamp: 
        secs: 1668086512
        nsecs: 796110641
      frame_id: "map"
    child_frame_id: "world"
    transform: 
      translation: 
        x: 0.0
        y: 0.0
        z: 0.0
      rotation: 
        x: 0.0
        y: 0.0
        z: 0.0
        w: 1.0
---
transforms: 
  - 
    header: 
      seq: 0
      stamp: 
        secs: 1668086512
        nsecs: 846262242
      frame_id: "map"
    child_frame_id: "world"
    transform: 
      translation: 
        x: 0.0
        y: 0.0
        z: 0.0
      rotation: 
        x: 0.0
        y: 0.0
        z: 0.0
        w: 1.0
---
transforms: 
  - 
    header: 
      seq: 0
      stamp: 
        secs: 1668086512
        nsecs: 896502902
      frame_id: "map"
    child_frame_id: "world"
    transform: 
      translation: 
        x: 0.0
        y: 0.0
        z: 0.0
      rotation: 
        x: 0.0
        y: 0.0
        z: 0.0
        w: 1.0
---
transforms: 
  - 
    header: 
      seq: 0
      stamp: 
        secs: 1668086512
        nsecs: 946645303
      frame_id: "map"
    child_frame_id: "world"
    transform: 
      translation: 
        x: 0.0
        y: 0.0
        z: 0.0
      rotation: 
        x: 0.0
        y: 0.0
        z: 0.0
        w: 1.0
---
transforms: 
  - 
    header: 
      seq: 0
      stamp: 
        secs: 1668086512
        nsecs: 996756019
      frame_id: "map"
    child_frame_id: "world"
    transform: 
      translation: 
        x: 0.0
        y: 0.0
        z: 0.0
      rotation: 
        x: 0.0
        y: 0.0
        z: 0.0
        w: 1.0
---
transforms: 
  - 
    header: 
      seq: 0
      stamp: 
        secs: 1668086513
        nsecs:  46865984
      frame_id: "map"
    child_frame_id: "world"
    transform: 
      translation: 
        x: 0.0
        y: 0.0
        z: 0.0
      rotation: 
        x: 0.0
        y: 0.0
        z: 0.0
        w: 1.0
---
transforms: 
  - 
    header: 
      seq: 0
      stamp: 
        secs: 1668086513
        nsecs:  97021343
      frame_id: "map"
    child_frame_id: "world"
    transform: 
      translation: 
        x: 0.0
        y: 0.0
        z: 0.0
      rotation: 
        x: 0.0
        y: 0.0
        z: 0.0
        w: 1.0
---
transforms: 
  - 
    header: 
      seq: 0
      stamp: 
        secs: 1668086513
        nsecs: 147139034
      frame_id: "map"
    child_frame_id: "world"
    transform: 
      translation: 
        x: 0.0
        y: 0.0
        z: 0.0
      rotation: 
        x: 0.0
        y: 0.0
        z: 0.0
        w: 1.0
---
transforms: 
  - 
    header: 
      seq: 0
      stamp: 
        secs: 1668086513
        nsecs: 197248168
      frame_id: "map"
    child_frame_id: "world"
    transform: 
      translation: 
        x: 0.0
        y: 0.0
        z: 0.0
      rotation: 
        x: 0.0
        y: 0.0
        z: 0.0
        w: 1.0
---
transforms: 
  - 
    header: 
      seq: 0
      stamp: 
        secs: 1668086513
        nsecs: 247360956
      frame_id: "map"
    child_frame_id: "world"
    transform: 
      translation: 
        x: 0.0
        y: 0.0
        z: 0.0
      rotation: 
        x: 0.0
        y: 0.0
        z: 0.0
        w: 1.0
---
transforms: 
  - 
    header: 
      seq: 0
      stamp: 
        secs: 1668086513
        nsecs: 297547193
      frame_id: "map"
    child_frame_id: "world"
    transform: 
      translation: 
        x: 0.0
        y: 0.0
        z: 0.0
      rotation: 
        x: 0.0
        y: 0.0
        z: 0.0
        w: 1.0
---
transforms: 
  - 
    header: 
      seq: 0
      stamp: 
        secs: 1668086513
        nsecs: 347762802
      frame_id: "map"
    child_frame_id: "world"
    transform: 
      translation: 
        x: 0.0
        y: 0.0
        z: 0.0
      rotation: 
        x: 0.0
        y: 0.0
        z: 0.0
        w: 1.0
---
transforms: 
  - 
    header: 
      seq: 0
      stamp: 
        secs: 1668086513
        nsecs: 398008199
      frame_id: "map"
    child_frame_id: "world"
    transform: 
      translation: 
        x: 0.0
        y: 0.0
        z: 0.0
      rotation: 
        x: 0.0
        y: 0.0
        z: 0.0
        w: 1.0
---
transforms: 
  - 
    header: 
      seq: 0
      stamp: 
        secs: 1668086513
        nsecs: 448235937
      frame_id: "map"
    child_frame_id: "world"
    transform: 
      translation: 
        x: 0.0
        y: 0.0
        z: 0.0
      rotation: 
        x: 0.0
        y: 0.0
        z: 0.0
        w: 1.0
---
transforms: 
  - 
    header: 
      seq: 0
      stamp: 
        secs: 1668086513
        nsecs: 498388647
      frame_id: "map"
    child_frame_id: "world"
    transform: 
      translation: 
        x: 0.0
        y: 0.0
        z: 0.0
      rotation: 
        x: 0.0
        y: 0.0
        z: 0.0
        w: 1.0
---
transforms: 
  - 
    header: 
      seq: 0
      stamp: 
        secs: 1668086513
        nsecs: 548577352
      frame_id: "map"
    child_frame_id: "world"
    transform: 
      translation: 
        x: 0.0
        y: 0.0
        z: 0.0
      rotation: 
        x: 0.0
        y: 0.0
        z: 0.0
        w: 1.0
---
transforms: 
  - 
    header: 
      seq: 0
      stamp: 
        secs: 1668086513
        nsecs: 598705069
      frame_id: "map"
    child_frame_id: "world"
    transform: 
      translation: 
        x: 0.0
        y: 0.0
        z: 0.0
      rotation: 
        x: 0.0
        y: 0.0
        z: 0.0
        w: 1.0
---
transforms: 
  - 
    header: 
      seq: 0
      stamp: 
        secs: 1668086513
        nsecs: 648824791
      frame_id: "map"
    child_frame_id: "world"
    transform: 
      translation: 
        x: 0.0
        y: 0.0
        z: 0.0
      rotation: 
        x: 0.0
        y: 0.0
        z: 0.0
        w: 1.0
---
transforms: 
  - 
    header: 
      seq: 0
      stamp: 
        secs: 1668086513
        nsecs: 698941275
      frame_id: "map"
    child_frame_id: "world"
    transform: 
      translation: 
        x: 0.0
        y: 0.0
        z: 0.0
      rotation: 
        x: 0.0
        y: 0.0
        z: 0.0
        w: 1.0
---
transforms: 
  - 
    header: 
      seq: 0
      stamp: 
        secs: 1668086513
        nsecs: 749050197
      frame_id: "map"
    child_frame_id: "world"
    transform: 
      translation: 
        x: 0.0
        y: 0.0
        z: 0.0
      rotation: 
        x: 0.0
        y: 0.0
        z: 0.0
        w: 1.0
---
transforms: 
  - 
    header: 
      seq: 0
      stamp: 
        secs: 1668086513
        nsecs: 799169636
      frame_id: "map"
    child_frame_id: "world"
    transform: 
      translation: 
        x: 0.0
        y: 0.0
        z: 0.0
      rotation: 
        x: 0.0
        y: 0.0
        z: 0.0
        w: 1.0
---
transforms: 
  - 
    header: 
      seq: 0
      stamp: 
        secs: 1668086513
        nsecs: 849281557
      frame_id: "map"
    child_frame_id: "world"
    transform: 
      translation: 
        x: 0.0
        y: 0.0
        z: 0.0
      rotation: 
        x: 0.0
        y: 0.0
        z: 0.0
        w: 1.0
---
transforms: 
  - 
    header: 
      seq: 0
      stamp: 
        secs: 1668086513
        nsecs: 899400595
      frame_id: "map"
    child_frame_id: "world"
    transform: 
      translation: 
        x: 0.0
        y: 0.0
        z: 0.0
      rotation: 
        x: 0.0
        y: 0.0
        z: 0.0
        w: 1.0
---
transforms: 
  - 
    header: 
      seq: 0
      stamp: 
        secs: 1668086513
        nsecs: 949511353
      frame_id: "map"
    child_frame_id: "world"
    transform: 
      translation: 
        x: 0.0
        y: 0.0
        z: 0.0
      rotation: 
        x: 0.0
        y: 0.0
        z: 0.0
        w: 1.0
---
transforms: 
  - 
    header: 
      seq: 0
      stamp: 
        secs: 1668086513
        nsecs: 999697427
      frame_id: "map"
    child_frame_id: "world"
    transform: 
      translation: 
        x: 0.0
        y: 0.0
        z: 0.0
      rotation: 
        x: 0.0
        y: 0.0
        z: 0.0
        w: 1.0
---
transforms: 
  - 
    header: 
      seq: 0
      stamp: 
        secs: 1668086514
        nsecs:  49853759
      frame_id: "map"
    child_frame_id: "world"
    transform: 
      translation: 
        x: 0.0
        y: 0.0
        z: 0.0
      rotation: 
        x: 0.0
        y: 0.0
        z: 0.0
        w: 1.0
---
transforms: 
  - 
    header: 
      seq: 0
      stamp: 
        secs: 1668086514
        nsecs: 100061789
      frame_id: "map"
    child_frame_id: "world"
    transform: 
      translation: 
        x: 0.0
        y: 0.0
        z: 0.0
      rotation: 
        x: 0.0
        y: 0.0
        z: 0.0
        w: 1.0
---
transforms: 
  - 
    header: 
      seq: 0
      stamp: 
        secs: 1668086514
        nsecs: 150771063
      frame_id: "map"
    child_frame_id: "world"
    transform: 
      translation: 
        x: 0.0
        y: 0.0
        z: 0.0
      rotation: 
        x: 0.0
        y: 0.0
        z: 0.0
        w: 1.0
---
transforms: 
  - 
    header: 
      seq: 0
      stamp: 
        secs: 1668086514
        nsecs: 200963387
      frame_id: "map"
    child_frame_id: "world"
    transform: 
      translation: 
        x: 0.0
        y: 0.0
        z: 0.0
      rotation: 
        x: 0.0
        y: 0.0
        z: 0.0
        w: 1.0
---
transforms: 
  - 
    header: 
      seq: 0
      stamp: 
        secs: 1668086514
        nsecs: 251081627
      frame_id: "map"
    child_frame_id: "world"
    transform: 
      translation: 
        x: 0.0
        y: 0.0
        z: 0.0
      rotation: 
        x: 0.0
        y: 0.0
        z: 0.0
        w: 1.0
---
transforms: 
  - 
    header: 
      seq: 0
      stamp: 
        secs: 1668086514
        nsecs: 301259563
      frame_id: "map"
    child_frame_id: "world"
    transform: 
      translation: 
        x: 0.0
        y: 0.0
        z: 0.0
      rotation: 
        x: 0.0
        y: 0.0
        z: 0.0
        w: 1.0
---
transforms: 
  - 
    header: 
      seq: 0
      stamp: 
        secs: 1668086514
        nsecs: 351399154
      frame_id: "map"
    child_frame_id: "world"
    transform: 
      translation: 
        x: 0.0
        y: 0.0
        z: 0.0
      rotation: 
        x: 0.0
        y: 0.0
        z: 0.0
        w: 1.0
---
transforms: 
  - 
    header: 
      seq: 0
      stamp: 
        secs: 1668086514
        nsecs: 401572665
      frame_id: "map"
    child_frame_id: "world"
    transform: 
      translation: 
        x: 0.0
        y: 0.0
        z: 0.0
      rotation: 
        x: 0.0
        y: 0.0
        z: 0.0
        w: 1.0
---
transforms: 
  - 
    header: 
      seq: 0
      stamp: 
        secs: 1668086514
        nsecs: 451688110
      frame_id: "map"
    child_frame_id: "world"
    transform: 
      translation: 
        x: 0.0
        y: 0.0
        z: 0.0
      rotation: 
        x: 0.0
        y: 0.0
        z: 0.0
        w: 1.0
---
transforms: 
  - 
    header: 
      seq: 0
      stamp: 
        secs: 1668086514
        nsecs: 501863583
      frame_id: "map"
    child_frame_id: "world"
    transform: 
      translation: 
        x: 0.0
        y: 0.0
        z: 0.0
      rotation: 
        x: 0.0
        y: 0.0
        z: 0.0
        w: 1.0
---
transforms: 
  - 
    header: 
      seq: 0
      stamp: 
        secs: 1668086514
        nsecs: 551981645
      frame_id: "map"
    child_frame_id: "world"
    transform: 
      translation: 
        x: 0.0
        y: 0.0
        z: 0.0
      rotation: 
        x: 0.0
        y: 0.0
        z: 0.0
        w: 1.0
---
transforms: 
  - 
    header: 
      seq: 0
      stamp: 
        secs: 1668086514
        nsecs: 602168785
      frame_id: "map"
    child_frame_id: "world"
    transform: 
      translation: 
        x: 0.0
        y: 0.0
        z: 0.0
      rotation: 
        x: 0.0
        y: 0.0
        z: 0.0
        w: 1.0
---
transforms: 
  - 
    header: 
      seq: 0
      stamp: 
        secs: 1668086514
        nsecs: 652373137
      frame_id: "map"
    child_frame_id: "world"
    transform: 
      translation: 
        x: 0.0
        y: 0.0
        z: 0.0
      rotation: 
        x: 0.0
        y: 0.0
        z: 0.0
        w: 1.0
---
transforms: 
  - 
    header: 
      seq: 0
      stamp: 
        secs: 1668086514
        nsecs: 703196630
      frame_id: "map"
    child_frame_id: "world"
    transform: 
      translation: 
        x: 0.0
        y: 0.0
        z: 0.0
      rotation: 
        x: 0.0
        y: 0.0
        z: 0.0
        w: 1.0
---
transforms: 
  - 
    header: 
      seq: 0
      stamp: 
        secs: 1668086514
        nsecs: 753442947
      frame_id: "map"
    child_frame_id: "world"
    transform: 
      translation: 
        x: 0.0
        y: 0.0
        z: 0.0
      rotation: 
        x: 0.0
        y: 0.0
        z: 0.0
        w: 1.0
---
transforms: 
  - 
    header: 
      seq: 0
      stamp: 
        secs: 1668086514
        nsecs: 803645358
      frame_id: "map"
    child_frame_id: "world"
    transform: 
      translation: 
        x: 0.0
        y: 0.0
        z: 0.0
      rotation: 
        x: 0.0
        y: 0.0
        z: 0.0
        w: 1.0
---
transforms: 
  - 
    header: 
      seq: 0
      stamp: 
        secs: 1668086514
        nsecs: 853777925
      frame_id: "map"
    child_frame_id: "world"
    transform: 
      translation: 
        x: 0.0
        y: 0.0
        z: 0.0
      rotation: 
        x: 0.0
        y: 0.0
        z: 0.0
        w: 1.0
---
transforms: 
  - 
    header: 
      seq: 0
      stamp: 
        secs: 1668086514
        nsecs: 904005054
      frame_id: "map"
    child_frame_id: "world"
    transform: 
      translation: 
        x: 0.0
        y: 0.0
        z: 0.0
      rotation: 
        x: 0.0
        y: 0.0
        z: 0.0
        w: 1.0
---
transforms: 
  - 
    header: 
      seq: 0
      stamp: 
        secs: 1668086514
        nsecs: 954765261
      frame_id: "map"
    child_frame_id: "world"
    transform: 
      translation: 
        x: 0.0
        y: 0.0
        z: 0.0
      rotation: 
        x: 0.0
        y: 0.0
        z: 0.0
        w: 1.0
---
transforms: 
  - 
    header: 
      seq: 0
      stamp: 
        secs: 1668086515
        nsecs:   4875827
      frame_id: "map"
    child_frame_id: "world"
    transform: 
      translation: 
        x: 0.0
        y: 0.0
        z: 0.0
      rotation: 
        x: 0.0
        y: 0.0
        z: 0.0
        w: 1.0
---
transforms: 
  - 
    header: 
      seq: 0
      stamp: 
        secs: 1668086514
        nsecs: 977107048
      frame_id: "world"
    child_frame_id: "Hips"
    transform: 
      translation: 
        x: 0.0
        y: 0.0
        z: 0.770318850069
      rotation: 
        x: -0.0053596009047
        y: 0.0300837468407
        z: 0.345889553787
        w: 0.937777510626
---
transforms: 
  - 
    header: 
      seq: 0
      stamp: 
        secs: 1668086514
        nsecs: 977452993
      frame_id: "Hips"
    child_frame_id: "LeftHipJoint"
    transform: 
      translation: 
        x: 8.89081651199e-05
        y: 0.0
        z: 0.0
      rotation: 
        x: 0.0
        y: 1.08420217249e-18
        z: 0.0
        w: 1.0
---
transforms: 
  - 
    header: 
      seq: 0
      stamp: 
        secs: 1668086514
        nsecs: 977581977
      frame_id: "LeftHipJoint"
    child_frame_id: "LeftUpLeg"
    transform: 
      translation: 
        x: 0.100232842215
        y: 0.0
        z: 0.0
      rotation: 
        x: -0.0616795534846
        y: -0.0487090108387
        z: 0.00405022254561
        w: 0.996898520734
---
transforms: 
  - 
    header: 
      seq: 0
      stamp: 
        secs: 1668086514
        nsecs: 977705001
      frame_id: "LeftUpLeg"
    child_frame_id: "LeftLeg"
    transform: 
      translation: 
        x: 0.0
        y: 0.0
        z: -0.379443164336
      rotation: 
        x: 0.0969821856572
        y: -0.00241779836042
        z: -0.0113230246283
        w: 0.995218769432
---
transforms: 
  - 
    header: 
      seq: 0
      stamp: 
        secs: 1668086514
        nsecs: 977809906
      frame_id: "LeftLeg"
    child_frame_id: "LeftFoot"
    transform: 
      translation: 
        x: 0.0
        y: 0.0
        z: -0.380204194381
      rotation: 
        x: 0.0
        y: 0.0
        z: -5.55111512313e-17
        w: 1.0
---
transforms: 
  - 
    header: 
      seq: 0
      stamp: 
        secs: 1668086514
        nsecs: 977896928
      frame_id: "Hips"
    child_frame_id: "LowerBack"
    transform: 
      translation: 
        x: 0.0
        y: 0.0
        z: 8.89081651199e-05
      rotation: 
        x: 0.0
        y: 1.08420217249e-18
        z: 0.0
        w: 1.0
---
transforms: 
  - 
    header: 
      seq: 0
      stamp: 
        secs: 1668086514
        nsecs: 977972030
      frame_id: "LowerBack"
    child_frame_id: "Spine"
    transform: 
      translation: 
        x: 0.0
        y: 0.0
        z: 0.198966899891
      rotation: 
        x: 0.0471024763013
        y: 0.0057442692582
        z: -0.000489155711274
        w: 0.998873425827
---
transforms: 
  - 
    header: 
      seq: 0
      stamp: 
        secs: 1668086514
        nsecs: 978050947
      frame_id: "Spine"
    child_frame_id: "Spine1"
    transform: 
      translation: 
        x: 0.0
        y: 0.0
        z: 0.219943066656
      rotation: 
        x: -6.93889390391e-18
        y: -1.73472347598e-18
        z: -0.00334839763767
        w: 0.999994394101
---
transforms: 
  - 
    header: 
      seq: 0
      stamp: 
        secs: 1668086514
        nsecs: 978178977
      frame_id: "Spine1"
    child_frame_id: "LeftShoulder"
    transform: 
      translation: 
        x: 8.89081651199e-05
        y: 0.0
        z: 0.0
      rotation: 
        x: 0.0
        y: 0.0
        z: 0.0
        w: 1.0
---
transforms: 
  - 
    header: 
      seq: 0
      stamp: 
        secs: 1668086514
        nsecs: 978307962
      frame_id: "LeftShoulder"
    child_frame_id: "LeftArm"
    transform: 
      translation: 
        x: 0.118154640305
        y: 0.0
        z: 0.0
      rotation: 
        x: 0.307626388344
        y: 0.558636912931
        z: -0.0291333217106
        w: 0.769702575202
---
transforms: 
  - 
    header: 
      seq: 0
      stamp: 
        secs: 1668086514
        nsecs: 978447914
      frame_id: "LeftArm"
    child_frame_id: "LeftForeArm"
    transform: 
      translation: 
        x: 0.221632382062
        y: 0.0
        z: 0.0
      rotation: 
        x: 1.38777878078e-17
        y: 6.59194920871e-17
        z: -0.450166143545
        w: 0.89294481532
---
transforms: 
  - 
    header: 
      seq: 0
      stamp: 
        secs: 1668086514
        nsecs: 978563070
      frame_id: "LeftForeArm"
    child_frame_id: "LeftHand"
    transform: 
      translation: 
        x: 0.205122207108
        y: 0.0
        z: 0.0
      rotation: 
        x: 0.0
        y: 0.0
        z: 0.0
        w: 1.0
---
transforms: 
  - 
    header: 
      seq: 0
      stamp: 
        secs: 1668086514
        nsecs: 978691101
      frame_id: "Spine1"
    child_frame_id: "Neck"
    transform: 
      translation: 
        x: 0.0
        y: 0.0
        z: 8.89081651199e-05
      rotation: 
        x: 0.0
        y: 0.0
        z: 0.0
        w: 1.0
---
transforms: 
  - 
    header: 
      seq: 0
      stamp: 
        secs: 1668086514
        nsecs: 978804111
      frame_id: "Neck"
    child_frame_id: "Neck1"
    transform: 
      translation: 
        x: 0.0
        y: 0.0
        z: 0.100354005214
      rotation: 
        x: 0.168441003446
        y: -0.0157095445432
        z: -0.0291524615226
        w: 0.985155303775
---
transforms: 
  - 
    header: 
      seq: 0
      stamp: 
        secs: 1668086514
        nsecs: 978893995
      frame_id: "Spine1"
    child_frame_id: "RightShoulder"
    transform: 
      translation: 
        x: -8.89081651199e-05
        y: 0.0
        z: 0.0
      rotation: 
        x: 0.0
        y: 0.0
        z: 0.0
        w: 1.0
---
transforms: 
  - 
    header: 
      seq: 0
      stamp: 
        secs: 1668086514
        nsecs: 978996992
      frame_id: "RightShoulder"
    child_frame_id: "RightArm"
    transform: 
      translation: 
        x: -0.118154640305
        y: 0.0
        z: 0.0
      rotation: 
        x: 0.181824063974
        y: -0.51848218423
        z: -0.0521151562034
        w: 0.833906616408
---
transforms: 
  - 
    header: 
      seq: 0
      stamp: 
        secs: 1668086514
        nsecs: 979264020
      frame_id: "RightArm"
    child_frame_id: "RightForeArm"
    transform: 
      translation: 
        x: -0.221632382062
        y: 0.0
        z: 0.0
      rotation: 
        x: 0.0
        y: 5.55111512313e-17
        z: 0.699601097646
        w: 0.714533627041
---
transforms: 
  - 
    header: 
      seq: 0
      stamp: 
        secs: 1668086514
        nsecs: 979475975
      frame_id: "RightForeArm"
    child_frame_id: "RightHand"
    transform: 
      translation: 
        x: -0.205122207108
        y: 0.0
        z: 0.0
      rotation: 
        x: 0.0
        y: -1.36609473733e-17
        z: 0.0
        w: 1.0
---
transforms: 
  - 
    header: 
      seq: 0
      stamp: 
        secs: 1668086514
        nsecs: 979615926
      frame_id: "Hips"
    child_frame_id: "RightHipJoint"
    transform: 
      translation: 
        x: -8.89081651199e-05
        y: 0.0
        z: 0.0
      rotation: 
        x: 0.0
        y: 1.08420217249e-18
        z: 0.0
        w: 1.0
---
transforms: 
  - 
    header: 
      seq: 0
      stamp: 
        secs: 1668086514
        nsecs: 979742050
      frame_id: "RightHipJoint"
    child_frame_id: "RightUpLeg"
    transform: 
      translation: 
        x: -0.100232842215
        y: 0.0
        z: 0.0
      rotation: 
        x: -0.0284118267432
        y: -0.0341533792122
        z: 0.00139318136266
        w: 0.999011698548
---
transforms: 
  - 
    header: 
      seq: 0
      stamp: 
        secs: 1668086514
        nsecs: 979866027
      frame_id: "RightUpLeg"
    child_frame_id: "RightLeg"
    transform: 
      translation: 
        x: 0.0
        y: 0.0
        z: -0.379443164336
      rotation: 
        x: 0.0709473851236
        y: 0.0123384261036
        z: -0.00512355146981
        w: 0.997390585982
---
transforms: 
  - 
    header: 
      seq: 0
      stamp: 
        secs: 1668086514
        nsecs: 979996919
      frame_id: "RightLeg"
    child_frame_id: "RightFoot"
    transform: 
      translation: 
        x: 0.0
        y: 0.0
        z: -0.380204194381
      rotation: 
        x: 0.0
        y: 1.73472347598e-18
        z: -5.55111512313e-17
        w: 1.0
---
transforms: 
  - 
    header: 
      seq: 0
      stamp: 
        secs: 1668086515
        nsecs:  55007613
      frame_id: "map"
    child_frame_id: "world"
    transform: 
      translation: 
        x: 0.0
        y: 0.0
        z: 0.0
      rotation: 
        x: 0.0
        y: 0.0
        z: 0.0
        w: 1.0
---
transforms: 
  - 
    header: 
      seq: 0
      stamp: 
        secs: 1668086515
        nsecs:  10478973
      frame_id: "world"
    child_frame_id: "Hips"
    transform: 
      translation: 
        x: 0.0
        y: 0.0
        z: 0.770318850069
      rotation: 
        x: 0.00369382911025
        y: 0.0289719502818
        z: 0.343184704033
        w: 0.938813741187
---
transforms: 
  - 
    header: 
      seq: 0
      stamp: 
        secs: 1668086515
        nsecs:  10720014
      frame_id: "Hips"
    child_frame_id: "LeftHipJoint"
    transform: 
      translation: 
        x: 8.89081651199e-05
        y: 0.0
        z: 0.0
      rotation: 
        x: 0.0
        y: -1.73472347598e-18
        z: 0.0
        w: 1.0
---
transforms: 
  - 
    header: 
      seq: 0
      stamp: 
        secs: 1668086515
        nsecs:  10826110
      frame_id: "LeftHipJoint"
    child_frame_id: "LeftUpLeg"
    transform: 
      translation: 
        x: 0.100232842215
        y: 0.0
        z: 0.0
      rotation: 
        x: -0.0735027262294
        y: -0.0442246135324
        z: 0.00520294091409
        w: 0.996300387534
---
transforms: 
  - 
    header: 
      seq: 0
      stamp: 
        secs: 1668086515
        nsecs:  10915994
      frame_id: "LeftUpLeg"
    child_frame_id: "LeftLeg"
    transform: 
      translation: 
        x: 0.0
        y: 0.0
        z: -0.379443164336
      rotation: 
        x: 0.095634775559
        y: -0.00287770726825
        z: -0.0112823561521
        w: 0.995348389733
---
transforms: 
  - 
    header: 
      seq: 0
      stamp: 
        secs: 1668086515
        nsecs:  11030912
      frame_id: "LeftLeg"
    child_frame_id: "LeftFoot"
    transform: 
      translation: 
        x: 0.0
        y: 0.0
        z: -0.380204194381
      rotation: 
        x: 0.0
        y: 0.0
        z: 0.0
        w: 1.0
---
transforms: 
  - 
    header: 
      seq: 0
      stamp: 
        secs: 1668086515
        nsecs:  11113882
      frame_id: "Hips"
    child_frame_id: "LowerBack"
    transform: 
      translation: 
        x: 0.0
        y: 0.0
        z: 8.89081651199e-05
      rotation: 
        x: 0.0
        y: -1.73472347598e-18
        z: 0.0
        w: 1.0
---
transforms: 
  - 
    header: 
      seq: 0
      stamp: 
        secs: 1668086515
        nsecs:  12479066
      frame_id: "LowerBack"
    child_frame_id: "Spine"
    transform: 
      translation: 
        x: 0.0
        y: 0.0
        z: 0.198966899891
      rotation: 
        x: 0.0488719006247
        y: 0.0167731333164
        z: -0.000440198479865
        w: 0.998664110476
---
transforms: 
  - 
    header: 
      seq: 0
      stamp: 
        secs: 1668086515
        nsecs:  12798070
      frame_id: "Spine"
    child_frame_id: "Spine1"
    transform: 
      translation: 
        x: 0.0
        y: 0.0
        z: 0.219943066656
      rotation: 
        x: -1.04083408559e-17
        y: -8.67361737988e-18
        z: 0.000150214904189
        w: 0.999999988718
---
transforms: 
  - 
    header: 
      seq: 0
      stamp: 
        secs: 1668086515
        nsecs:  12950897
      frame_id: "Spine1"
    child_frame_id: "LeftShoulder"
    transform: 
      translation: 
        x: 8.89081651199e-05
        y: 0.0
        z: 0.0
      rotation: 
        x: 0.0
        y: -3.46944695195e-18
        z: 0.0
        w: 1.0
---
transforms: 
  - 
    header: 
      seq: 0
      stamp: 
        secs: 1668086515
        nsecs:  13096094
      frame_id: "LeftShoulder"
    child_frame_id: "LeftArm"
    transform: 
      translation: 
        x: 0.118154640305
        y: 0.0
        z: 0.0
      rotation: 
        x: 0.304456972302
        y: 0.558302059985
        z: -0.0232578832617
        w: 0.771403806511
---
transforms: 
  - 
    header: 
      seq: 0
      stamp: 
        secs: 1668086515
        nsecs:  13231992
      frame_id: "LeftArm"
    child_frame_id: "LeftForeArm"
    transform: 
      translation: 
        x: 0.221632382062
        y: 0.0
        z: 0.0
      rotation: 
        x: 5.14627139631e-33
        y: 5.55111512313e-17
        z: -0.439646228016
        w: 0.89817102725
---
transforms: 
  - 
    header: 
      seq: 0
      stamp: 
        secs: 1668086515
        nsecs:  13366937
      frame_id: "LeftForeArm"
    child_frame_id: "LeftHand"
    transform: 
      translation: 
        x: 0.205122207108
        y: 0.0
        z: 0.0
      rotation: 
        x: 0.0
        y: 1.73472347598e-17
        z: -6.93889390391e-18
        w: 1.0
---
transforms: 
  - 
    header: 
      seq: 0
      stamp: 
        secs: 1668086515
        nsecs:  13518095
      frame_id: "Spine1"
    child_frame_id: "Neck"
    transform: 
      translation: 
        x: 0.0
        y: 0.0
        z: 8.89081651199e-05
      rotation: 
        x: 0.0
        y: -3.46944695195e-18
        z: 0.0
        w: 1.0
---
transforms: 
  - 
    header: 
      seq: 0
      stamp: 
        secs: 1668086515
        nsecs:  13649940
      frame_id: "Neck"
    child_frame_id: "Neck1"
    transform: 
      translation: 
        x: 0.0
        y: 0.0
        z: 0.100354005214
      rotation: 
        x: 0.164497277348
        y: -0.0250729248494
        z: -0.0260689246736
        w: 0.985714160064
---
transforms: 
  - 
    header: 
      seq: 0
      stamp: 
        secs: 1668086515
        nsecs:  13780117
      frame_id: "Spine1"
    child_frame_id: "RightShoulder"
    transform: 
      translation: 
        x: -8.89081651199e-05
        y: 0.0
        z: 0.0
      rotation: 
        x: 0.0
        y: -3.46944695195e-18
        z: 0.0
        w: 1.0
---
transforms: 
  - 
    header: 
      seq: 0
      stamp: 
        secs: 1668086515
        nsecs:  13906955
      frame_id: "RightShoulder"
    child_frame_id: "RightArm"
    transform: 
      translation: 
        x: -0.118154640305
        y: 0.0
        z: 0.0
      rotation: 
        x: 0.170517202271
        y: -0.514045521643
        z: -0.0467386509803
        w: 0.839342947735
---
transforms: 
  - 
    header: 
      seq: 0
      stamp: 
        secs: 1668086515
        nsecs:  14034986
      frame_id: "RightArm"
    child_frame_id: "RightForeArm"
    transform: 
      translation: 
        x: -0.221632382062
        y: 0.0
        z: 0.0
      rotation: 
        x: 0.0
        y: 0.0
        z: 0.695451310873
        w: 0.718573221185
---
transforms: 
  - 
    header: 
      seq: 0
      stamp: 
        secs: 1668086515
        nsecs:  14206886
      frame_id: "RightForeArm"
    child_frame_id: "RightHand"
    transform: 
      translation: 
        x: -0.205122207108
        y: 0.0
        z: 0.0
      rotation: 
        x: 0.0
        y: -1.38777878078e-17
        z: 0.0
        w: 1.0
---
transforms: 
  - 
    header: 
      seq: 0
      stamp: 
        secs: 1668086515
        nsecs:  14354944
      frame_id: "Hips"
    child_frame_id: "RightHipJoint"
    transform: 
      translation: 
        x: -8.89081651199e-05
        y: 0.0
        z: 0.0
      rotation: 
        x: 0.0
        y: -1.73472347598e-18
        z: 0.0
        w: 1.0
---
transforms: 
  - 
    header: 
      seq: 0
      stamp: 
        secs: 1668086515
        nsecs:  14492988
      frame_id: "RightHipJoint"
    child_frame_id: "RightUpLeg"
    transform: 
      translation: 
        x: -0.100232842215
        y: 0.0
        z: 0.0
      rotation: 
        x: -0.0394513792736
        y: -0.0294371296557
        z: 0.00214571161161
        w: 0.99878548247
---
transforms: 
  - 
    header: 
      seq: 0
      stamp: 
        secs: 1668086515
        nsecs:  14625072
      frame_id: "RightUpLeg"
    child_frame_id: "RightLeg"
    transform: 
      translation: 
        x: 0.0
        y: 0.0
        z: -0.379443164336
      rotation: 
        x: 0.068424626829
        y: 0.0157585141359
        z: -0.00472274440319
        w: 0.997520644078
---
transforms: 
  - 
    header: 
      seq: 0
      stamp: 
        secs: 1668086515
        nsecs:  14753103
      frame_id: "RightLeg"
    child_frame_id: "RightFoot"
    transform: 
      translation: 
        x: 0.0
        y: 0.0
        z: -0.380204194381
      rotation: 
        x: 0.0
        y: -1.73472347598e-18
        z: 0.0
        w: 1.0
---
transforms: 
  - 
    header: 
      seq: 0
      stamp: 
        secs: 1668086515
        nsecs:  43802976
      frame_id: "world"
    child_frame_id: "Hips"
    transform: 
      translation: 
        x: 0.0
        y: 0.0
        z: 0.770318850069
      rotation: 
        x: 0.0119958315336
        y: 0.0317081001238
        z: 0.343317646452
        w: 0.938607314082
---
transforms: 
  - 
    header: 
      seq: 0
      stamp: 
        secs: 1668086515
        nsecs:  44138908
      frame_id: "Hips"
    child_frame_id: "LeftHipJoint"
    transform: 
      translation: 
        x: 8.89081651199e-05
        y: 0.0
        z: 0.0
      rotation: 
        x: 0.0
        y: 2.60208521397e-18
        z: 0.0
        w: 1.0
---
transforms: 
  - 
    header: 
      seq: 0
      stamp: 
        secs: 1668086515
        nsecs:  44262886
      frame_id: "LeftHipJoint"
    child_frame_id: "LeftUpLeg"
    transform: 
      translation: 
        x: 0.100232842215
        y: 0.0
        z: 0.0
      rotation: 
        x: -0.0869076962095
        y: -0.0408767144569
        z: 0.00645885035822
        w: 0.995356433549
---
transforms: 
  - 
    header: 
      seq: 0
      stamp: 
        secs: 1668086515
        nsecs:  44406890
      frame_id: "LeftUpLeg"
    child_frame_id: "LeftLeg"
    transform: 
      translation: 
        x: 0.0
        y: 0.0
        z: -0.379443164336
      rotation: 
        x: 0.0960294366135
        y: -0.00572168544218
        z: -0.0116365586739
        w: 0.99529402697
---
transforms: 
  - 
    header: 
      seq: 0
      stamp: 
        secs: 1668086515
        nsecs:  44629096
      frame_id: "LeftLeg"
    child_frame_id: "LeftFoot"
    transform: 
      translation: 
        x: 0.0
        y: 0.0
        z: -0.380204194381
      rotation: 
        x: 0.0
        y: 0.0
        z: 0.0
        w: 1.0
---
transforms: 
  - 
    header: 
      seq: 0
      stamp: 
        secs: 1668086515
        nsecs:  44779062
      frame_id: "Hips"
    child_frame_id: "LowerBack"
    transform: 
      translation: 
        x: 0.0
        y: 0.0
        z: 8.89081651199e-05
      rotation: 
        x: 0.0
        y: 2.60208521397e-18
        z: 0.0
        w: 1.0
---
transforms: 
  - 
    header: 
      seq: 0
      stamp: 
        secs: 1668086515
        nsecs:  45025110
      frame_id: "LowerBack"
    child_frame_id: "Spine"
    transform: 
      translation: 
        x: 0.0
        y: 0.0
        z: 0.198966899891
      rotation: 
        x: 0.0510375033431
        y: 0.0195328373321
        z: -0.000672447383835
        w: 0.998505477868
---
transforms: 
  - 
    header: 
      seq: 0
      stamp: 
        secs: 1668086515
        nsecs:  45315980
      frame_id: "Spine"
    child_frame_id: "Spine1"
    transform: 
      translation: 
        x: 0.0
        y: 0.0
        z: 0.219943066656
      rotation: 
        x: 1.38777878078e-17
        y: 6.93889390391e-18
        z: -0.00185594169844
        w: 0.999998277739
---
transforms: 
  - 
    header: 
      seq: 0
      stamp: 
        secs: 1668086515
        nsecs:  45610904
      frame_id: "Spine1"
    child_frame_id: "LeftShoulder"
    transform: 
      translation: 
        x: 8.89081651199e-05
        y: 0.0
        z: 0.0
      rotation: 
        x: 0.0
        y: -3.46944695195e-18
        z: -5.55111512313e-17
        w: 1.0
---
transforms: 
  - 
    header: 
      seq: 0
      stamp: 
        secs: 1668086515
        nsecs:  45831918
      frame_id: "LeftShoulder"
    child_frame_id: "LeftArm"
    transform: 
      translation: 
        x: 0.118154640305
        y: 0.0
        z: 0.0
      rotation: 
        x: 0.297801859155
        y: 0.555829810872
        z: -0.0273454831814
        w: 0.775641346616
---
transforms: 
  - 
    header: 
      seq: 0
      stamp: 
        secs: 1668086515
        nsecs:  46046972
      frame_id: "LeftArm"
    child_frame_id: "LeftForeArm"
    transform: 
      translation: 
        x: 0.221632382062
        y: 0.0
        z: 0.0
      rotation: 
        x: -4.16333634234e-17
        y: -1.37043154602e-16
        z: -0.439341789084
        w: 0.898319983282
---
transforms: 
  - 
    header: 
      seq: 0
      stamp: 
        secs: 1668086515
        nsecs:  46269893
      frame_id: "LeftForeArm"
    child_frame_id: "LeftHand"
    transform: 
      translation: 
        x: 0.205122207108
        y: 0.0
        z: 0.0
      rotation: 
        x: 0.0
        y: 1.21430643318e-17
        z: -6.93889390391e-18
        w: 1.0
---
transforms: 
  - 
    header: 
      seq: 0
      stamp: 
        secs: 1668086515
        nsecs:  46489953
      frame_id: "Spine1"
    child_frame_id: "Neck"
    transform: 
      translation: 
        x: 0.0
        y: 0.0
        z: 8.89081651199e-05
      rotation: 
        x: 0.0
        y: -3.46944695195e-18
        z: -5.55111512313e-17
        w: 1.0
---
transforms: 
  - 
    header: 
      seq: 0
      stamp: 
        secs: 1668086515
        nsecs:  46670913
      frame_id: "Neck"
    child_frame_id: "Neck1"
    transform: 
      translation: 
        x: 0.0
        y: 0.0
        z: 0.100354005214
      rotation: 
        x: 0.161087099957
        y: -0.0328855027334
        z: -0.0256916678753
        w: 0.986057517663
---
transforms: 
  - 
    header: 
      seq: 0
      stamp: 
        secs: 1668086515
        nsecs:  46863079
      frame_id: "Spine1"
    child_frame_id: "RightShoulder"
    transform: 
      translation: 
        x: -8.89081651199e-05
        y: 0.0
        z: 0.0
      rotation: 
        x: 0.0
        y: -3.46944695195e-18
        z: -5.55111512313e-17
        w: 1.0
---
transforms: 
  - 
    header: 
      seq: 0
      stamp: 
        secs: 1668086515
        nsecs:  47209024
      frame_id: "RightShoulder"
    child_frame_id: "RightArm"
    transform: 
      translation: 
        x: -0.118154640305
        y: 0.0
        z: 0.0
      rotation: 
        x: 0.157947665702
        y: -0.503956592983
        z: -0.0422341380509
        w: 0.848113533008
---
transforms: 
  - 
    header: 
      seq: 0
      stamp: 
        secs: 1668086515
        nsecs:  47403097
      frame_id: "RightArm"
    child_frame_id: "RightForeArm"
    transform: 
      translation: 
        x: -0.221632382062
        y: 0.0
        z: 0.0
      rotation: 
        x: 5.55111512313e-17
        y: 1.66533453694e-16
        z: 0.695045728105
        w: 0.718965531749
---
transforms: 
  - 
    header: 
      seq: 0
      stamp: 
        secs: 1668086515
        nsecs:  47622919
      frame_id: "RightForeArm"
    child_frame_id: "RightHand"
    transform: 
      translation: 
        x: -0.205122207108
        y: 0.0
        z: 0.0
      rotation: 
        x: 0.0
        y: -1.38777878078e-17
        z: 0.0
        w: 1.0
---
transforms: 
  - 
    header: 
      seq: 0
      stamp: 
        secs: 1668086515
        nsecs:  47918081
      frame_id: "Hips"
    child_frame_id: "RightHipJoint"
    transform: 
      translation: 
        x: -8.89081651199e-05
        y: 0.0
        z: 0.0
      rotation: 
        x: 0.0
        y: 2.60208521397e-18
        z: 0.0
        w: 1.0
---
transforms: 
  - 
    header: 
      seq: 0
      stamp: 
        secs: 1668086515
        nsecs:  48312902
      frame_id: "RightHipJoint"
    child_frame_id: "RightUpLeg"
    transform: 
      translation: 
        x: -0.100232842215
        y: 0.0
        z: 0.0
      rotation: 
        x: -0.0537910825238
        y: -0.0254713901518
        z: 0.00310195804664
        w: 0.998222472989
---
transforms: 
  - 
    header: 
      seq: 0
      stamp: 
        secs: 1668086515
        nsecs:  48541069
      frame_id: "RightUpLeg"
    child_frame_id: "RightLeg"
    transform: 
      translation: 
        x: 0.0
        y: 0.0
        z: -0.379443164336
      rotation: 
        x: 0.0727028217916
        y: 0.0116262978746
        z: -0.00524948942795
        w: 0.997272065067
---
transforms: 
  - 
    header: 
      seq: 0
      stamp: 
        secs: 1668086515
        nsecs:  48764944
      frame_id: "RightLeg"
    child_frame_id: "RightFoot"
    transform: 
      translation: 
        x: 0.0
        y: 0.0
        z: -0.380204194381
      rotation: 
        x: -6.93889390391e-18
        y: -1.73472347598e-18
        z: -5.55111512313e-17
        w: 1.0
---
transforms: 
  - 
    header: 
      seq: 0
      stamp: 
        secs: 1668086515
        nsecs: 105120300
      frame_id: "map"
    child_frame_id: "world"
    transform: 
      translation: 
        x: 0.0
        y: 0.0
        z: 0.0
      rotation: 
        x: 0.0
        y: 0.0
        z: 0.0
        w: 1.0
---
transforms: 
  - 
    header: 
      seq: 0
      stamp: 
        secs: 1668086515
        nsecs:  76977014
      frame_id: "world"
    child_frame_id: "Hips"
    transform: 
      translation: 
        x: 0.0
        y: 0.0
        z: 0.770318850069
      rotation: 
        x: 0.0186614963265
        y: 0.0363308164263
        z: 0.339291235208
        w: 0.93979427432
---
transforms: 
  - 
    header: 
      seq: 0
      stamp: 
        secs: 1668086515
        nsecs:  77227115
      frame_id: "Hips"
    child_frame_id: "LeftHipJoint"
    transform: 
      translation: 
        x: 8.89081651199e-05
        y: 0.0
        z: 0.0
      rotation: 
        x: 0.0
        y: 2.60208521397e-18
        z: 0.0
        w: 1.0
---
transforms: 
  - 
    header: 
      seq: 0
      stamp: 
        secs: 1668086515
        nsecs:  77553033
      frame_id: "LeftHipJoint"
    child_frame_id: "LeftUpLeg"
    transform: 
      translation: 
        x: 0.100232842215
        y: 0.0
        z: 0.0
      rotation: 
        x: -0.0974839792877
        y: -0.0426632796901
        z: 0.00727833804511
        w: 0.994295601994
---
transforms: 
  - 
    header: 
      seq: 0
      stamp: 
        secs: 1668086515
        nsecs:  77785015
      frame_id: "LeftUpLeg"
    child_frame_id: "LeftLeg"
    transform: 
      translation: 
        x: 0.0
        y: 0.0
        z: -0.379443164336
      rotation: 
        x: 0.0995123599333
        y: -0.00643666056972
        z: -0.0123599742684
        w: 0.994938737138
---
transforms: 
  - 
    header: 
      seq: 0
      stamp: 
        secs: 1668086515
        nsecs:  78013896
      frame_id: "LeftLeg"
    child_frame_id: "LeftFoot"
    transform: 
      translation: 
        x: 0.0
        y: 0.0
        z: -0.380204194381
      rotation: 
        x: 0.0
        y: 0.0
        z: 0.0
        w: 1.0
---
transforms: 
  - 
    header: 
      seq: 0
      stamp: 
        secs: 1668086515
        nsecs:  78218936
      frame_id: "Hips"
    child_frame_id: "LowerBack"
    transform: 
      translation: 
        x: 0.0
        y: 0.0
        z: 8.89081651199e-05
      rotation: 
        x: 0.0
        y: 2.60208521397e-18
        z: 0.0
        w: 1.0
---
transforms: 
  - 
    header: 
      seq: 0
      stamp: 
        secs: 1668086515
        nsecs:  78368902
      frame_id: "LowerBack"
    child_frame_id: "Spine"
    transform: 
      translation: 
        x: 0.0
        y: 0.0
        z: 0.198966899891
      rotation: 
        x: 0.0530209212215
        y: 0.0185793252661
        z: -0.000674141436682
        w: 0.998420320366
---
transforms: 
  - 
    header: 
      seq: 0
      stamp: 
        secs: 1668086515
        nsecs:  78556060
      frame_id: "Spine"
    child_frame_id: "Spine1"
    transform: 
      translation: 
        x: 0.0
        y: 0.0
        z: 0.219943066656
      rotation: 
        x: -1.04083408559e-17
        y: -1.73472347598e-17
        z: -0.00297599655504
        w: 0.999995571712
---
transforms: 
  - 
    header: 
      seq: 0
      stamp: 
        secs: 1668086515
        nsecs:  78763961
      frame_id: "Spine1"
    child_frame_id: "LeftShoulder"
    transform: 
      translation: 
        x: 8.89081651199e-05
        y: 0.0
        z: 0.0
      rotation: 
        x: 0.0
        y: 3.46944695195e-18
        z: 0.0
        w: 1.0
---
transforms: 
  - 
    header: 
      seq: 0
      stamp: 
        secs: 1668086515
        nsecs:  79004049
      frame_id: "LeftShoulder"
    child_frame_id: "LeftArm"
    transform: 
      translation: 
        x: 0.118154640305
        y: 0.0
        z: 0.0
      rotation: 
        x: 0.278656747707
        y: 0.561331980269
        z: -0.0290972991694
        w: 0.778723424629
---
transforms: 
  - 
    header: 
      seq: 0
      stamp: 
        secs: 1668086515
        nsecs:  79161882
      frame_id: "LeftArm"
    child_frame_id: "LeftForeArm"
    transform: 
      translation: 
        x: 0.221632382062
        y: 0.0
        z: 0.0
      rotation: 
        x: 4.85722573274e-17
        y: -2.94902990916e-17
        z: -0.434495267762
        w: 0.900674115478
---
transforms: 
  - 
    header: 
      seq: 0
      stamp: 
        secs: 1668086515
        nsecs:  79360961
      frame_id: "LeftForeArm"
    child_frame_id: "LeftHand"
    transform: 
      translation: 
        x: 0.205122207108
        y: 0.0
        z: 0.0
      rotation: 
        x: 0.0
        y: 5.20417042793e-18
        z: -6.93889390391e-18
        w: 1.0
---
transforms: 
  - 
    header: 
      seq: 0
      stamp: 
        secs: 1668086515
        nsecs:  79523086
      frame_id: "Spine1"
    child_frame_id: "Neck"
    transform: 
      translation: 
        x: 0.0
        y: 0.0
        z: 8.89081651199e-05
      rotation: 
        x: 0.0
        y: 3.46944695195e-18
        z: 0.0
        w: 1.0
---
transforms: 
  - 
    header: 
      seq: 0
      stamp: 
        secs: 1668086515
        nsecs:  79750061
      frame_id: "Neck"
    child_frame_id: "Neck1"
    transform: 
      translation: 
        x: 0.0
        y: 0.0
        z: 0.100354005214
      rotation: 
        x: 0.151445876366
        y: -0.04455005618
        z: -0.0303915240396
        w: 0.986993310156
---
transforms: 
  - 
    header: 
      seq: 0
      stamp: 
        secs: 1668086515
        nsecs:  79910039
      frame_id: "Spine1"
    child_frame_id: "RightShoulder"
    transform: 
      translation: 
        x: -8.89081651199e-05
        y: 0.0
        z: 0.0
      rotation: 
        x: 0.0
        y: 3.46944695195e-18
        z: 0.0
        w: 1.0
---
transforms: 
  - 
    header: 
      seq: 0
      stamp: 
        secs: 1668086515
        nsecs:  80070972
      frame_id: "RightShoulder"
    child_frame_id: "RightArm"
    transform: 
      translation: 
        x: -0.118154640305
        y: 0.0
        z: 0.0
      rotation: 
        x: 0.145062268958
        y: -0.485678860435
        z: -0.0331736782269
        w: 0.861378250088
---
transforms: 
  - 
    header: 
      seq: 0
      stamp: 
        secs: 1668086515
        nsecs:  80264091
      frame_id: "RightArm"
    child_frame_id: "RightForeArm"
    transform: 
      translation: 
        x: -0.221632382062
        y: 0.0
        z: 0.0
      rotation: 
        x: 5.55111512313e-17
        y: -8.66443336027e-33
        z: 0.702892708417
        w: 0.711295888119
---
transforms: 
  - 
    header: 
      seq: 0
      stamp: 
        secs: 1668086515
        nsecs:  80416917
      frame_id: "RightForeArm"
    child_frame_id: "RightHand"
    transform: 
      translation: 
        x: -0.205122207108
        y: 0.0
        z: 0.0
      rotation: 
        x: 0.0
        y: 0.0
        z: 0.0
        w: 1.0
---
transforms: 
  - 
    header: 
      seq: 0
      stamp: 
        secs: 1668086515
        nsecs:  80585002
      frame_id: "Hips"
    child_frame_id: "RightHipJoint"
    transform: 
      translation: 
        x: -8.89081651199e-05
        y: 0.0
        z: 0.0
      rotation: 
        x: 0.0
        y: 2.60208521397e-18
        z: 0.0
        w: 1.0
---
transforms: 
  - 
    header: 
      seq: 0
      stamp: 
        secs: 1668086515
        nsecs:  80806016
      frame_id: "RightHipJoint"
    child_frame_id: "RightUpLeg"
    transform: 
      translation: 
        x: -0.100232842215
        y: 0.0
        z: 0.0
      rotation: 
        x: -0.0684180432737
        y: -0.0240268336
        z: 0.00376372597139
        w: 0.997360274419
---
transforms: 
  - 
    header: 
      seq: 0
      stamp: 
        secs: 1668086515
        nsecs:  80996990
      frame_id: "RightUpLeg"
    child_frame_id: "RightLeg"
    transform: 
      translation: 
        x: 0.0
        y: 0.0
        z: -0.379443164336
      rotation: 
        x: 0.0759570420537
        y: 0.00677415695774
        z: -0.0055300797433
        w: 0.997072743975
---
transforms: 
  - 
    header: 
      seq: 0
      stamp: 
        secs: 1668086515
        nsecs:  81187009
      frame_id: "RightLeg"
    child_frame_id: "RightFoot"
    transform: 
      translation: 
        x: 0.0
        y: 0.0
        z: -0.380204194381
      rotation: 
        x: -3.46944695195e-18
        y: 0.0
        z: 0.0
        w: 1.0
---
transforms: 
  - 
    header: 
      seq: 0
      stamp: 
        secs: 1668086515
        nsecs: 155236530
      frame_id: "map"
    child_frame_id: "world"
    transform: 
      translation: 
        x: 0.0
        y: 0.0
        z: 0.0
      rotation: 
        x: 0.0
        y: 0.0
        z: 0.0
        w: 1.0
---
transforms: 
  - 
    header: 
      seq: 0
      stamp: 
        secs: 1668086515
        nsecs: 110424041
      frame_id: "world"
    child_frame_id: "Hips"
    transform: 
      translation: 
        x: 0.0
        y: 0.0
        z: 0.770318850069
      rotation: 
        x: 0.0214476595922
        y: 0.0419752776009
        z: 0.339952866942
        w: 0.93926041236
---
transforms: 
  - 
    header: 
      seq: 0
      stamp: 
        secs: 1668086515
        nsecs: 110671997
      frame_id: "Hips"
    child_frame_id: "LeftHipJoint"
    transform: 
      translation: 
        x: 8.89081651199e-05
        y: 0.0
        z: 0.0
      rotation: 
        x: 0.0
        y: 2.60208521397e-18
        z: 0.0
        w: 1.0
---
transforms: 
  - 
    header: 
      seq: 0
      stamp: 
        secs: 1668086515
        nsecs: 110876083
      frame_id: "LeftHipJoint"
    child_frame_id: "LeftUpLeg"
    transform: 
      translation: 
        x: 0.100232842215
        y: 0.0
        z: 0.0
      rotation: 
        x: -0.108160571435
        y: -0.0461939372026
        z: 0.00787401277507
        w: 0.993028403861
---
transforms: 
  - 
    header: 
      seq: 0
      stamp: 
        secs: 1668086515
        nsecs: 111205101
      frame_id: "LeftUpLeg"
    child_frame_id: "LeftLeg"
    transform: 
      translation: 
        x: 0.0
        y: 0.0
        z: -0.379443164336
      rotation: 
        x: 0.10198674801
        y: -0.00609771280536
        z: -0.0128146837146
        w: 0.99468452537
---
transforms: 
  - 
    header: 
      seq: 0
      stamp: 
        secs: 1668086515
        nsecs: 111376047
      frame_id: "LeftLeg"
    child_frame_id: "LeftFoot"
    transform: 
      translation: 
        x: 0.0
        y: 0.0
        z: -0.380204194381
      rotation: 
        x: 0.0
        y: 1.73472347598e-18
        z: 0.0
        w: 1.0
---
transforms: 
  - 
    header: 
      seq: 0
      stamp: 
        secs: 1668086515
        nsecs: 111516952
      frame_id: "Hips"
    child_frame_id: "LowerBack"
    transform: 
      translation: 
        x: 0.0
        y: 0.0
        z: 8.89081651199e-05
      rotation: 
        x: 0.0
        y: 2.60208521397e-18
        z: 0.0
        w: 1.0
---
transforms: 
  - 
    header: 
      seq: 0
      stamp: 
        secs: 1668086515
        nsecs: 111649990
      frame_id: "LowerBack"
    child_frame_id: "Spine"
    transform: 
      translation: 
        x: 0.0
        y: 0.0
        z: 0.198966899891
      rotation: 
        x: 0.0524917326532
        y: 0.0208700433152
        z: -0.000261194433886
        w: 0.998403220684
---
transforms: 
  - 
    header: 
      seq: 0
      stamp: 
        secs: 1668086515
        nsecs: 111784934
      frame_id: "Spine"
    child_frame_id: "Spine1"
    transform: 
      translation: 
        x: 0.0
        y: 0.0
        z: 0.219943066656
      rotation: 
        x: -3.46944695195e-18
        y: -1.73472347598e-17
        z: -0.00497965355409
        w: 0.999987601448
---
transforms: 
  - 
    header: 
      seq: 0
      stamp: 
        secs: 1668086515
        nsecs: 111988067
      frame_id: "Spine1"
    child_frame_id: "LeftShoulder"
    transform: 
      translation: 
        x: 8.89081651199e-05
        y: 0.0
        z: 0.0
      rotation: 
        x: -6.93889390391e-18
        y: -1.73472347598e-17
        z: -5.55111512313e-17
        w: 1.0
---
transforms: 
  - 
    header: 
      seq: 0
      stamp: 
        secs: 1668086515
        nsecs: 112123966
      frame_id: "LeftShoulder"
    child_frame_id: "LeftArm"
    transform: 
      translation: 
        x: 0.118154640305
        y: 0.0
        z: 0.0
      rotation: 
        x: 0.277101070174
        y: 0.561430114382
        z: -0.018031855619
        w: 0.77954222192
---
transforms: 
  - 
    header: 
      seq: 0
      stamp: 
        secs: 1668086515
        nsecs: 112279891
      frame_id: "LeftArm"
    child_frame_id: "LeftForeArm"
    transform: 
      translation: 
        x: 0.221632382062
        y: 0.0
        z: 0.0
      rotation: 
        x: 1.38777878078e-17
        y: 1.00613961607e-16
        z: -0.439083267779
        w: 0.898446372332
---
transforms: 
  - 
    header: 
      seq: 0
      stamp: 
        secs: 1668086515
        nsecs: 112433910
      frame_id: "LeftForeArm"
    child_frame_id: "LeftHand"
    transform: 
      translation: 
        x: 0.205122207108
        y: 0.0
        z: 0.0
      rotation: 
        x: 0.0
        y: -1.56125112838e-17
        z: 0.0
        w: 1.0
---
transforms: 
  - 
    header: 
      seq: 0
      stamp: 
        secs: 1668086515
        nsecs: 112584114
      frame_id: "Spine1"
    child_frame_id: "Neck"
    transform: 
      translation: 
        x: 0.0
        y: 0.0
        z: 8.89081651199e-05
      rotation: 
        x: -6.93889390391e-18
        y: -1.73472347598e-17
        z: -5.55111512313e-17
        w: 1.0
---
transforms: 
  - 
    header: 
      seq: 0
      stamp: 
        secs: 1668086515
        nsecs: 112776994
      frame_id: "Neck"
    child_frame_id: "Neck1"
    transform: 
      translation: 
        x: 0.0
        y: 0.0
        z: 0.100354005214
      rotation: 
        x: 0.15850786961
        y: -0.0537757077177
        z: -0.0263522448604
        w: 0.985539947299
---
transforms: 
  - 
    header: 
      seq: 0
      stamp: 
        secs: 1668086515
        nsecs: 112916946
      frame_id: "Spine1"
    child_frame_id: "RightShoulder"
    transform: 
      translation: 
        x: -8.89081651199e-05
        y: 0.0
        z: 0.0
      rotation: 
        x: -6.93889390391e-18
        y: -1.73472347598e-17
        z: -5.55111512313e-17
        w: 1.0
---
transforms: 
  - 
    header: 
      seq: 0
      stamp: 
        secs: 1668086515
        nsecs: 113044023
      frame_id: "RightShoulder"
    child_frame_id: "RightArm"
    transform: 
      translation: 
        x: -0.118154640305
        y: 0.0
        z: 0.0
      rotation: 
        x: 0.155173977143
        y: -0.489740181291
        z: -0.041511150665
        w: 0.856943648099
---
transforms: 
  - 
    header: 
      seq: 0
      stamp: 
        secs: 1668086515
        nsecs: 113174915
      frame_id: "RightArm"
    child_frame_id: "RightForeArm"
    transform: 
      translation: 
        x: -0.221632382062
        y: 0.0
        z: 0.0
      rotation: 
        x: -1.11022302463e-16
        y: 0.0
        z: 0.711391964298
        w: 0.702795470341
---
transforms: 
  - 
    header: 
      seq: 0
      stamp: 
        secs: 1668086515
        nsecs: 113377094
      frame_id: "RightForeArm"
    child_frame_id: "RightHand"
    transform: 
      translation: 
        x: -0.205122207108
        y: 0.0
        z: 0.0
      rotation: 
        x: 0.0
        y: 0.0
        z: 0.0
        w: 1.0
---
transforms: 
  - 
    header: 
      seq: 0
      stamp: 
        secs: 1668086515
        nsecs: 113517999
      frame_id: "Hips"
    child_frame_id: "RightHipJoint"
    transform: 
      translation: 
        x: -8.89081651199e-05
        y: 0.0
        z: 0.0
      rotation: 
        x: 0.0
        y: 2.60208521397e-18
        z: 0.0
        w: 1.0
---
transforms: 
  - 
    header: 
      seq: 0
      stamp: 
        secs: 1668086515
        nsecs: 113642930
      frame_id: "RightHipJoint"
    child_frame_id: "RightUpLeg"
    transform: 
      translation: 
        x: -0.100232842215
        y: 0.0
        z: 0.0
      rotation: 
        x: -0.0769131633659
        y: -0.0291177806691
        z: 0.00420791752583
        w: 0.996603639157
---
transforms: 
  - 
    header: 
      seq: 0
      stamp: 
        secs: 1668086515
        nsecs: 113781929
      frame_id: "RightUpLeg"
    child_frame_id: "RightLeg"
    transform: 
      translation: 
        x: 0.0
        y: 0.0
        z: -0.379443164336
      rotation: 
        x: 0.0726546121859
        y: 0.00941262934525
        z: -0.00544723185503
        w: 0.997297867942
---
transforms: 
  - 
    header: 
      seq: 0
      stamp: 
        secs: 1668086515
        nsecs: 114156007
      frame_id: "RightLeg"
    child_frame_id: "RightFoot"
    transform: 
      translation: 
        x: 0.0
        y: 0.0
        z: -0.380204194381
      rotation: 
        x: 0.0
        y: 0.0
        z: 0.0
        w: 1.0
---
transforms: 
  - 
    header: 
      seq: 0
      stamp: 
        secs: 1668086515
        nsecs: 145205974
      frame_id: "world"
    child_frame_id: "Hips"
    transform: 
      translation: 
        x: 0.0
        y: 0.0
        z: 0.770318850069
      rotation: 
        x: 0.0251952752376
        y: 0.0478598273216
        z: 0.345277333797
        w: 0.936940872094
---
transforms: 
  - 
    header: 
      seq: 0
      stamp: 
        secs: 1668086515
        nsecs: 146771907
      frame_id: "Hips"
    child_frame_id: "LeftHipJoint"
    transform: 
      translation: 
        x: 8.89081651199e-05
        y: 0.0
        z: 0.0
      rotation: 
        x: 0.0
        y: 1.73472347598e-18
        z: -5.55111512313e-17
        w: 1.0
---
transforms: 
  - 
    header: 
      seq: 0
      stamp: 
        secs: 1668086515
        nsecs: 147192955
      frame_id: "LeftHipJoint"
    child_frame_id: "LeftUpLeg"
    transform: 
      translation: 
        x: 0.100232842215
        y: 0.0
        z: 0.0
      rotation: 
        x: -0.113937152636
        y: -0.0491692136081
        z: 0.00827630424402
        w: 0.99223596814
---
transforms: 
  - 
    header: 
      seq: 0
      stamp: 
        secs: 1668086515
        nsecs: 147619009
      frame_id: "LeftUpLeg"
    child_frame_id: "LeftLeg"
    transform: 
      translation: 
        x: 0.0
        y: 0.0
        z: -0.379443164336
      rotation: 
        x: 0.096872574328
        y: -0.00688973613231
        z: -0.0125332204601
        w: 0.995194028451
---
transforms: 
  - 
    header: 
      seq: 0
      stamp: 
        secs: 1668086515
        nsecs: 148607969
      frame_id: "LeftLeg"
    child_frame_id: "LeftFoot"
    transform: 
      translation: 
        x: 0.0
        y: 0.0
        z: -0.380204194381
      rotation: 
        x: 0.0
        y: 0.0
        z: 0.0
        w: 1.0
---
transforms: 
  - 
    header: 
      seq: 0
      stamp: 
        secs: 1668086515
        nsecs: 149564981
      frame_id: "Hips"
    child_frame_id: "LowerBack"
    transform: 
      translation: 
        x: 0.0
        y: 0.0
        z: 8.89081651199e-05
      rotation: 
        x: 0.0
        y: 1.73472347598e-18
        z: -5.55111512313e-17
        w: 1.0
---
transforms: 
  - 
    header: 
      seq: 0
      stamp: 
        secs: 1668086515
        nsecs: 150495052
      frame_id: "LowerBack"
    child_frame_id: "Spine"
    transform: 
      translation: 
        x: 0.0
        y: 0.0
        z: 0.198966899891
      rotation: 
        x: 0.0516443991404
        y: 0.021278421717
        z: -7.15809375476e-05
        w: 0.998438821202
---
transforms: 
  - 
    header: 
      seq: 0
      stamp: 
        secs: 1668086515
        nsecs: 151393890
      frame_id: "Spine"
    child_frame_id: "Spine1"
    transform: 
      translation: 
        x: 0.0
        y: 0.0
        z: 0.219943066656
      rotation: 
        x: 1.20371232664e-35
        y: 1.73472347598e-17
        z: -0.00318657010246
        w: 0.999994922873
---
transforms: 
  - 
    header: 
      seq: 0
      stamp: 
        secs: 1668086515
        nsecs: 152185916
      frame_id: "Spine1"
    child_frame_id: "LeftShoulder"
    transform: 
      translation: 
        x: 8.89081651199e-05
        y: 0.0
        z: 0.0
      rotation: 
        x: 0.0
        y: 0.0
        z: 0.0
        w: 1.0
---
transforms: 
  - 
    header: 
      seq: 0
      stamp: 
        secs: 1668086515
